places =
[{"name":"Arrowhead stadium","descrip":"Kansas City Chiefs","lat":39.048397,"long":-94.484322},
{"name":"AT&T Stadium","descrip":"Dallas Cowboys","lat":32.746941,"long":-97.0924},
{"name":"Bank of America Stadium","descrip":"Carolina Panthers","lat":35.22488,"long":-80.851921},
{"name":"Broncos Stadium at Mile High","descrip":"Denver Broncos","lat":39.722031,"long":-105.018669},
{"name":"CenturyLink Field","descrip":"Seattle Seahawks","lat":47.594971,"long":-122.33152},
{"name":"FedExField","descrip":"Washington Redskins","lat":38.907642,"long":-76.864548},
{"name":"FirstEnergy Stadium","descrip":"Cleveland Browns","lat":40.3511,"long":-75.93287},
{"name":"Ford Field","descrip":"Detroit Lions","lat":42.339924,"long":-83.045197},
{"name":"Gillette Stadium","descrip":"New England Patriots","lat":42.093811,"long":-71.2658},
{"name":"Hard Rock Stadium","descrip":"Miami Dolphins","lat":25.957411,"long":-80.233841},
{"name":"Heinz Field","descrip":"Pittsburgh Steelers","lat":40.44529,"long":-80.013618},
{"name":"Lambeau Field","descrip":"Green Bay Packers","lat":44.501175,"long":-88.061127},
{"name":"Levi's Stadium","descrip":"San Francisco 49ers","lat":37.402317,"long":-121.968994},
{"name":"Lincoln Financial Field","descrip":"Philadelphia Eagles","lat":39.901699,"long":-75.167633},
{"name":"Los Angeles Memorial Coliseum","descrip":"Los Angeles Rams","lat":34.014011,"long":-118.283279},
{"name":"Lucas Oil Stadium","descrip":"Indianapolis Colts","lat":39.760101,"long":-86.163887},
{"name":"M&T Bank Stadium","descrip":"Baltimore Ravens","lat":39.277363,"long":-76.623024},
{"name":"Mercedes-Benz Superdome","descrip":"New Orleans Saints","lat":29.952339,"long":-90.080688},
{"name":"Mercedes-Benz Stadium","descrip":"Atlanta Falcons","lat":33.754589,"long":-84.401779},
{"name":"MetLife Stadium","descrip":"New York Giants & New York Jets","lat":40.81383,"long":-74.07919},
{"name":"New Era Field","descrip":"Buffalo Bills","lat":42.7714,"long":-78.789253},
{"name":"Nissan Stadium","descrip":"Tennessee Titans","lat":36.166241,"long":-86.771858},
{"name":"NRG Stadium","descrip":"Houston Texans","lat":29.68329,"long":-95.40786},
{"name":"Oakland-Alameda County Coliseum","descrip":"Oakland Raiders","lat":37.750809,"long":-122.203392},
{"name":"Paul Brown Stadium","descrip":"Cincinnati Bengals","lat":40.79356,"long":-81.500427},
{"name":"Raymond James Stadium","descrip":"Tampa Bay Buccaneers","lat":27.97986,"long":-82.50531},
{"name":"Soldier Field","descrip":"Chicago Bears","lat":41.863441,"long":-87.614853},
{"name":"State Farm Stadium","descrip":"Arizona Cardinals","lat":33.52724,"long":-112.26223},
{"name":"StubHub Center ","descrip":"Los Angeles Chargers","lat":33.86298,"long":-118.266006},
{"name":"TIAA Bank Field","descrip":"Jacksonville Jaguars","lat":30.323973,"long":-81.637291},
{"name":"U.S. Bank Stadium","descrip":"Minnesota Vikings","lat":44.975056,"long":-93.258179}]
